timestamp_us,t_s,imu_wx_rad_s,imu_wy_rad_s,imu_wz_rad_s,imu_ax_m_s2,imu_ay_m_s2,imu_az_m_s2,mag_x,mag_y,mag_z,baro_alt_m,baro_alt_rel_m,baro_z_down_rel_m,gps_available,gps_lat_deg,gps_lon_deg,gps_alt_m,gps_n_m,gps_e_m,gps_d_m,gps_vn_m_s,gps_ve_m_s,gps_vd_m_s,gps_fix_type,gps_sats,gps_eph_m,gps_epv_m,gps_interp_n_m,gps_interp_e_m,gps_interp_d_m,gps_interp_vn_m_s,gps_interp_ve_m_s,gps_interp_vd_m_s,px4_local_n_m,px4_local_e_m,px4_local_d_m,px4_local_vn_m_s,px4_local_ve_m_s,px4_local_vd_m_s,att_q0,att_q1,att_q2,att_q3,att_roll_rad,att_pitch_rad,att_yaw_rad,est_q0,est_q1,est_q2,est_q3,est_vn_m_s,est_ve_m_s,est_vd_m_s,est_n_m,est_e_m,est_d_m,ias_m_s,tas_m_s,px4_wind_n_m_s,px4_wind_e_m_s,px4_wind_d_m_s
2501255053,0.0,0.04355891922800001,-0.014107514796,0.14867896072,0.9477988804,-0.024737382799999992,-9.738294531999998,,,,318.8336,5.3567299999999864,-5.3567299999999864,0,,,,,,,,,,,,,,3.1985402504863196,-67.62151491697307,-9.302821993811248,-4.195056166175572,-13.356542955151074,-2.457361649289473,3.3075658768747624,-68.07516562198708,-6.2061221809733365,-4.154433934764867,-13.346767074350408,-2.5072296904326605,0.615138543691596,0.1087143457355377,0.0054366119820358156,-0.7808683195468326,0.12760171987225685,0.1774008429697149,-1.7957608275121122,,,,,,,,,,,12.79833217864094,13.263587354320048,0.4544488614335212,-1.818717199744514,0.0
2501355053,0.10000000000002274,0.12244938948000002,-0.0028353636505600004,0.21183081720000005,1.1301741012000002,-0.07917768759999999,-9.013615295999998,,,,318.93211857142853,5.4552485714285535,-5.4552485714285535,1,47.3840167,8.1497523,416.797,2.849778964670861,-68.72453660570275,-9.511000000000024,-4.1460004,-13.345,-2.398,4.0,18.0,0.55600005,0.81100005,2.7861234585656085,-68.9424993257058,-9.55282507087467,-4.113569599478002,-13.340425423717882,-2.397346483267584,2.914637284689934,-69.40335058445805,-6.449285723289138,-4.00981684069802,-13.326145074499077,-2.4702094162673167,0.6207451006599238,0.10961575449272648,0.002720581969913217,-0.7763056731363551,0.1342980885150258,0.17445025507135326,-1.7808199627518002,,,,,,,,,,,12.554527839416659,13.012125463541237,0.4729864146795238,-1.8141755344037838,0.0
2501455053,0.1999999999999318,0.21944739079999992,-0.005722635085999999,0.2634184212,1.3377369205599996,0.19518098863999994,-9.606702720000001,,,,319.29789666666665,5.821026666666654,-5.821026666666654,0,,,,,,,,,,,,,,2.396507189100235,-70.27658379138728,-9.80882379088107,-3.9150703919740404,-13.312425813715931,-2.393346503267484,2.5342478832980526,-70.73005087637596,-6.684818470448772,-3.86124620607536,-13.310711875740896,-2.3947749006773917,0.6283472707051482,0.11349560717472698,-0.0032102304020187205,-0.7695980268087363,0.1503331697460226,0.17149005781468546,-1.7592502637678882,,,,,,,,,,,12.305770245457012,12.752791955519392,0.4789845256490797,-1.8091966944734876,0.0
2501555053,0.2999999999999545,0.16621524540000002,0.010069442076000001,0.2550835992,1.3091094143199995,0.1261655815999999,-10.334331000000002,,,,319.3979314285715,5.921061428571412,-5.921061428571412,1,47.3840097,8.1497169,417.309,2.07054252957742,-71.39271887791038,-10.023000000000025,-3.749,-13.2890005,-2.39,4.0,18.0,0.558,0.814,2.011792467798095,-71.61212264505255,-10.066540264696105,-3.7163448179704615,-13.289577738357714,-2.3891753737746955,2.168125931037033,-72.05690932500374,-6.912994868593133,-3.6813075824848815,-13.304532607296716,-2.360366450381328,0.6371169658579345,0.1200618017143036,-0.013219874312995022,-0.7612403493848418,0.17646120979320362,0.16671238456721665,-1.733079522421994,,,,,,,,,,,12.234975837818048,12.680934994691562,0.48441162087454337,-1.8046682682320345,0.0
2501655053,0.39999999999997726,0.2573557176,0.0003009158639999991,0.2523438967999999,1.3326546676800002,0.31316770239999997,-9.621890844,,,,319.77765857142856,6.300788571428565,-6.300788571428565,0,,,,,,,,,,,,,,1.6521789415734247,-72.95510952845935,-10.333053484357494,-3.516460004176383,-13.29311105755777,-2.384127774917472,1.8233689509919009,-73.38366927752224,-7.1397142625177485,-3.4630706006439356,-13.306210555324467,-2.381666478369163,0.6457182755954951,0.12557539219615205,-0.02045672079831065,-0.7528989769572971,0.19685056632761097,0.16339519532612692,-1.7075940276663273,,,,,,,,,,,12.173153586724577,12.616462546973844,0.48792077820408464,-1.8016526995459337,0.0
2501755053,0.5,0.28176263040000005,-0.03717267794399999,0.2672428644,1.0593348811999999,0.20912174960000002,-8.759415576000002,,,,320.06038428571435,6.583514285714281,-6.583514285714281,1,47.384003299999996,8.1496816,417.837,1.3580977882326757,-74.05336391210291,-10.550999999999988,-3.3530002,-13.2960005,-2.38,4.0,18.0,0.56,0.81600004,1.300832004655239,-74.29280795502046,-10.59432019255531,-3.309409247216169,-13.300603315584203,-2.369260220312407,1.5031326001413625,-74.7113164222314,-7.36494749584279,-3.226156207508559,-13.312961458976035,-2.3505877978862944,0.6535146059299343,0.13372500092711917,-0.031633087421426336,-0.7443350355336252,0.22662095020303327,0.15838739792599443,-1.6824956875572559,,,,,,,,,,,12.277311090153718,12.724893262152056,0.49144974278002507,-1.7979882754753964,0.0
2501855053,0.6000000000000227,0.17706459868,-0.01385561398,0.2597533896,1.1125314464000002,0.13414110559999998,-8.161763859999999,,,,320.32751666666667,6.850646666666658,-6.850646666666658,0,,,,,,,,,,,,,,0.9865819713048759,-75.60677405784413,-10.832042809881335,-3.0702008140063195,-13.32586159130282,-2.310324920484756,1.2055641932210173,-76.04029949387731,-7.582778320335948,-2.9915322004682063,-13.324170176757773,-2.2111070587398456,0.6613752606157782,0.14100054394172878,-0.04488345547275166,-0.7353125408335154,0.2581852707103029,0.14853234439848303,-1.6572567650661896,,,,,,,,,,,12.418738472762646,12.872058748077098,0.49506311038156714,-1.791558936155127,0.0
2501955053,0.6999999999999318,0.16618023354160003,0.032270688376,0.25335646599999995,1.3270579912,0.383610082,-9.066774340000002,,,,320.4895757142857,7.012705714285695,-7.012705714285695,1,47.3839976,8.1496464,418.317,0.7235766908929565,-76.70647170828035,-11.031000000000006,-2.8700001,-13.347001,-2.2610002,4.0,18.0,0.559,0.81500006,0.6811237690238916,-76.92358134571818,-11.067269873415208,-2.835596453568159,-13.34732556262564,-2.233655790675815,0.933673192541105,-77.37142358988078,-7.783550813287595,-2.7366145672030644,-13.346102774222906,-2.009090182813938,0.6695976329506861,0.1456477247772417,-0.053286858036844416,-0.7263488554358043,0.2787751618123411,0.1406810381006077,-1.6322919106733265,,,,,,,,,,,12.454618847258486,12.909124177110531,0.49648728549169924,-1.7832589274354589,0.0
2502055053,0.7999999999999545,0.18541677644,0.0596155872308,0.24512822239999996,1.3610817404000004,0.20811538175200006,-10.541197215999999,,,,320.6247128571428,7.147842857142832,-7.147842857142832,0,,,,,,,,,,,,,,0.42078819614681473,-78.25497054935978,-11.289688916864048,-2.62462174067283,-13.349315889636367,-2.0659706902638177,0.6900412314142017,-78.7050121873197,-7.968252460491595,-2.4396122041072044,-13.363362885909913,-1.8983220400392353,0.6775282829309268,0.15179552231139146,-0.06001240339845117,-0.7171513092974019,0.29895428286946374,0.13682089187922122,-1.6069643619707374,,,,,,,,,,,12.533099623148148,12.99014020324074,0.4885882819772862,-1.7669922437767442,0.0
2502155053,0.8999999999999773,0.11416224217200002,0.0429842518,0.250294596,1.4813609312000002,0.35210525439999996,-10.756316276,,,,320.77192857142865,7.295058571428545,-7.295058571428545,1,47.383992899999996,8.149610899999999,418.764,0.20037508337043763,-79.38219121862294,-11.478000000000009,-2.446,-13.351001,-1.9240001,4.0,18.0,0.559,0.814,0.17220819097611384,-79.5925532716201,-11.495788600000006,-2.3789093826675,-13.349544175,-1.9221599,0.47874637006152015,-80.04137302907323,-8.149588716193689,-2.0827329039114906,-13.389778582298074,-1.918928742952967,0.6849874097601844,0.15949104481873677,-0.06641812044362776,-0.707769356839417,0.320872663368169,0.13517997611332344,-1.5815996007397373,,,,,,,,,,,12.321042207301295,12.770288933456563,0.47955161816918945,-1.7507992638076173,0.0
2502255053,1.0,0.05661789724,0.012962115507999998,0.25608488160000004,1.24170229664,0.16304397719999994,-9.751629428000003,,,,320.95770999999996,7.480839999999972,-7.480839999999972,0,,,,,,,,,,,,,,-0.011468968426062931,-80.9643305979792,-11.611788599999992,-1.9414094326675002,-13.340044175,-1.9101599,0.3027500351640958,-81.37964442329032,-8.33346111491208,-1.7115013957264102,-13.403609808123319,-1.9241733524037068,0.6930355478380663,0.16390744333573373,-0.07073332845023325,-0.6984479985597545,0.3350582260391181,0.13129555585397498,-1.5563410156821857,,,,,,,,,,,12.294386210358248,12.742850620496956,0.46406770703637695,-1.7350239708388673,0.0
2502355053,1.1000000000000227,-0.11149510554000001,0.050320543368,0.28782020960000004,1.3489625644,0.18852495280000006,-11.034865808,,,,321.1762028571429,7.699332857142841,-7.699332857142841,1,47.3839896,8.1495745,418.996,-0.1669792354339159,-82.12574587134114,-11.70999999999998,-1.5710001,-13.332001,-1.9000001,4.0,18.0,0.55600005,0.81000006,-0.18661050963376388,-82.33379417295606,-11.74005629943699,-1.5427073002604974,-13.346569027644724,-1.8976231987690122,0.16506691769292914,-82.71881011252596,-8.517438121143341,-1.3403526609005925,-13.411251525236592,-1.8872795188505038,0.7016081688129023,0.1652671763461899,-0.07401889094230167,-0.6891683067456398,0.3432219036299882,0.12424860286147066,-1.5313465848345733,,,,,,,,,,,12.33082294635744,12.781568036646897,0.44696967944777116,-1.7186977796777998,0.0
2502455053,1.1999999999999318,-0.058847814316000016,-0.012137278884,0.2940004872000001,1.3646173092,0.4369979412,-9.772283635999996,,,,321.09052,7.613649999999983,-7.613649999999983,0,,,,,,,,,,,,,,-0.31462664396599715,-83.69048345639213,-11.936054339456616,-1.3582090952425476,-13.441567577659223,-1.8821233537674624,0.0648558870358713,-84.05876617955636,-8.700780236610711,-0.9577648602018386,-13.407720824740208,-1.8960447708233412,0.7126272672341489,0.16184837913877692,-0.0706140948160995,-0.6789548603615512,0.335143509928489,0.11941673111329042,-1.5021876407431936,,,,,,,,,,,12.504185444648126,12.961117032102297,0.4156595455892673,-1.6975209944812109,0.0
2502555053,1.2999999999999545,-0.07543827984399999,-0.0420467197056,0.27960830319999996,1.0361393584000003,0.2741018328,-9.091595856000003,,,,321.49630142857137,8.019431428571409,-8.019431428571409,1,47.3839873,8.1495385,419.38800000000003,-0.42301406442106915,-84.83915157199894,-12.102000000000032,-1.202,-13.522,-1.8690001,4.0,18.0,0.555,0.804,-0.4349593492865529,-85.04597156672703,-12.137104495965957,-1.1404521625359167,-13.523686318811674,-1.8756684212861043,0.0040619035984968774,-85.39905957687385,-8.881837216451592,-0.5963907985132365,-13.403927231694526,-1.8361957903961816,0.7230046581621148,0.1582370858772864,-0.07133950231254699,-0.6686787626096217,0.33221780805464624,0.10867555427631842,-1.4745269252533721,,,,,,,,,,,12.61158266890681,13.07222637913182,0.3786995141686555,-1.674232233694726,0.0
2502655053,1.3999999999999773,-0.10715266966399999,-0.012446147719999998,0.2732175584,1.2580171536000002,0.2139550876767999,-8.578712920000001,,,,321.8446383333333,8.367768333333316,-8.367768333333316,0,,,,,,,,,,,,,,-0.5128650746206932,-86.39482694224455,-12.366051838077258,-0.7390444962991511,-13.534684289278466,-1.919158418586725,-0.025660228383901112,-86.74340479583738,-9.052686411093035,-0.2578066874841968,-13.407333295688577,-1.7234062518580981,0.7328647620176947,0.15283211250007817,-0.07204942043845938,-0.659055809006784,0.32620839697570514,0.0959964412528764,-1.449031684527546,,,,,,,,,,,12.680295969410999,13.143945565652457,0.291653979677736,-1.6322211228604169,0.0
2502755053,1.5,0.07808187823999999,-0.043086042524,0.2897865288,1.3270801210000003,0.191000904,-7.531263184,,,,321.86396285714284,8.387092857142834,-8.387092857142834,1,47.3839859,8.1495027,419.846,-0.5788613517230036,-87.5374827965067,-12.560000000000002,-0.39900002,-13.544001,-1.9560001,4.0,18.0,0.55300003,0.79800004,-0.5806339709771927,-87.7511198017209,-12.590255048098209,-0.3427097028468826,-13.544080618547627,-1.9095028681859139,-0.025812134635869184,-88.09046995880783,-9.20594788337216,0.04248133294622021,-13.41647107510573,-1.538455039561483,0.7426624325397335,0.1476480923436551,-0.07116179746990964,-0.6492955668284581,0.3182179071472699,0.08614264430981394,-1.4230140559231497,,,,,,,,,,,12.561374759003257,13.02125791142027,0.2064332675488937,-1.591433935670101,0.0
2502855053,1.6000000000000227,-0.024657471324,-0.10593130763999997,0.29697474319999995,0.8494408891999998,4.651439999999951e-05,-6.2249439199999985,,,,322.0598614285714,8.582991428571413,-8.582991428571413,0,,,,,,,,,,,,,,-0.5922295702065326,-89.14862752209908,-12.788168622365275,0.02551373637021298,-13.544601443743066,-1.6053409540491554,0.0006904537190903347,-89.44175545818207,-9.337694273929175,0.31410860633344334,-13.453832081275689,-1.2674493116048122,0.7513833041451361,0.14760561594119487,-0.07713277674094464,-0.638500253164842,0.32695451698701417,0.07264280184363651,-1.3967299824100716,,,,,,,,,,,12.167273843329886,12.611702807652533,0.13873487430137146,-1.5623991145303753,0.0
2502955053,1.6999999999999318,0.024364957660000006,-0.08400622267999999,0.30532344199999994,1.0108514311199999,0.5410646124,-6.4356327883999995,,,,322.1313383333333,8.654468333333313,-8.654468333333313,1,47.3839857,8.149467099999999,420.226,-0.6011252501113129,-90.22073954486439,-12.939999999999998,0.30800003,-13.545001,-1.3720001,4.0,18.0,0.55,0.79,-0.5884192998285661,-90.53044629565419,-12.967850036275221,0.3570800131018255,-13.54785448732328,-1.2934721174493617,0.050858252954645994,-90.79810859134273,-9.439656491565849,0.5339776138139294,-13.484351517089497,-0.8698124367444365,0.7606226723338853,0.14202838822904626,-0.08235679131439193,-0.6280894369198088,0.3256932140947097,0.05315365558207789,-1.3717651457636415,,,,,,,,,,,12.330628036781608,12.782361043770116,0.06957295758652617,-1.53291027561395,0.0
2503055053,1.7999999999999545,0.0402317326,-0.03303696786192,0.25413039480000005,0.8986464098399998,0.43214147239999995,-7.596382612,,,,322.4279071428572,8.951037142857128,-8.951037142857128,0,,,,,,,,,,,,,,-0.5338498517837852,-91.86057321022987,-13.087460224710304,0.5678684648361731,-13.560109629580971,-0.9562105534971275,0.12504159807425336,-92.16100636624593,-9.504235474065332,0.7977924109289672,-13.508237500990179,-0.4923404205005901,0.7696589601966055,0.13909931488231803,-0.0884315931538149,-0.6168091330134717,0.32933206518931507,0.03547802369672149,-1.3452993369526254,,,,,,,,,,,12.831745194968553,13.300503987421385,-0.025137681274194273,-1.4954956505484278,0.0
2503155053,1.8999999999999773,0.12609591852000002,-0.003243303411999999,0.21945976880000004,1.0536798435999999,0.4365918456000001,-9.13046068,,,,322.5470566666667,9.070186666666643,-9.070186666666643,1,47.3839867,8.1494311,420.47,-0.4898057588778817,-92.93414524552219,-13.184000000000026,0.73800004,-13.570001,-0.684,4.0,18.0,0.545,0.77800006,-0.46725525270438584,-93.19807274687149,-13.187762100525156,0.8092870275332833,-13.555338357899474,-0.6321023065410353,0.22840100035226366,-93.52736501677674,-9.535986117619913,1.106125493481584,-13.519819233518886,-0.23878576632209433,0.7770594240584598,0.13825027587596028,-0.09257864393029792,-0.6070351578902005,0.3334947629012238,0.023968958315163283,-1.3223038616927394,,,,,,,,,,,13.082953441349966,13.562025753698869,-0.12047218991149292,-1.4578688106283553,0.0
2503255053,2.0,0.18863616676,-0.013931759263999997,0.1579610004,1.1229864476000002,0.49554483360000007,-8.212460976,,,,322.3171766666667,8.840306666666644,-8.840306666666644,0,,,,,,,,,,,,,,-0.35034055873147063,-94.56642354192181,-13.207266976744204,1.17887945564031,-13.479318853023255,-0.3630350447255814,0.36330200942724583,-94.89262319194464,-9.54629842514599,1.4627056489700825,-13.526313947464203,-0.04586961071426286,0.7828795761636409,0.1418797908388915,-0.09765865773977245,-0.5978525925562649,0.3458204591792861,0.016732716421265423,-1.3014487048368155,,,,,,,,,,,13.099257024627875,13.5789345842129,-0.2635823459621456,-1.4039906592206974,0.0
2503355053,2.1000000000000227,0.10795458081999998,0.039579572338799995,0.1639578716,0.9289330364000001,0.13128756852,-8.482175712,,,,322.12139428571425,8.644524285714267,-8.644524285714267,1,47.3839888,8.1493948,420.509,-0.2560348282790378,-95.67016266022529,-13.223000000000013,1.4770001,-13.418,-0.14600001,4.0,18.0,0.53800005,0.767,-0.22115212291185507,-95.92924977326079,-13.221860521185768,1.5446091763119256,-13.431768797295373,-0.11238538403017909,0.5343470032835105,-96.25668568264663,-9.544975843682828,1.8148913478549507,-13.538081641545276,0.1398318851971886,0.7861984786343887,0.14786530078329635,-0.10498782074485044,-0.5907647527952989,0.3645891839522903,0.009622918855366234,-1.2870449787943445,,,,,,,,,,,12.828123358809332,13.296806204344328,-0.4059195430078662,-1.3504274582755327,0.0
2503455053,2.199999999999932,-0.09282689699200003,0.09203671736,0.18793255160000008,1.2472648242,0.17323813651999997,-10.309623088,,,,322.160405,8.683534999999978,-8.683534999999978,0,,,,,,,,,,,,,,-0.04076787755461697,-97.26903213459858,-13.215968087561576,1.8942269046805564,-13.502969527957141,0.061441412793799194,0.7411422139967115,-97.61973512548319,-9.529222042520049,2.1581916962960825,-13.555472868574395,0.3420627056608781,0.7905850290477531,0.15214060053945025,-0.10741611331222442,-0.5833428813678582,0.3745916584675416,0.007656433800302413,-1.2699239642510294,,,,,,,,,,,12.565730423045931,13.025700420306205,-0.49451919095329777,-1.3187601998504768,0.0
2503555053,2.2999999999999545,-0.15328150240000002,0.10183539276000002,0.22551311039999994,1.110565944,0.0030910740000000114,-10.779593775999999,,,,322.14597374999994,8.669103749999977,-8.669103749999977,1,47.3839921,8.1493586,420.497,0.11131949123343121,-98.3986428369133,-13.211000000000013,2.1890001,-13.563001,0.208,4.0,18.0,0.536,0.762,0.15061938286945,-98.61092539335587,-13.208254157185378,2.2503500815893576,-13.5594706306669,0.21247180272431296,0.9846171501556892,-98.98106363634545,-9.50200725983681,2.563260909232354,-13.543985338666294,0.37461803882308237,0.797384831130956,0.14985891433616436,-0.1022766183888091,-0.5755504775260726,0.3647731283276044,0.009396097683010161,-1.2486791531340125,,,,,,,,,,,12.608650963177276,13.070301182535507,-0.5825493538594615,-1.2873133267981132,0.0
2503655053,2.3999999999999773,0.08216355409200002,0.0374547123168,0.3184507452,0.8179445132000001,-0.21792753920000002,-9.398913508,,,,322.1603916666666,8.683521666666659,-8.683521666666659,0,,,,,,,,,,,,,,0.40114460525753437,-99.96416410338698,-13.190750218799229,2.64143812639944,-13.53696556702758,0.24097822666970067,1.271564267062933,-100.3412128342628,-9.473948515380952,2.9538600116855536,-13.518034250818664,0.3500233241752833,0.8055486941960394,0.1455568124847428,-0.09571560803512268,-0.5663390941960393,0.35004593262424144,0.0106610769761466,-1.2236515645116663,,,,,,,,,,,12.697779172849707,13.162414066842931,-0.6318470667277513,-1.2708555488901259,0.0
2503755053,2.5,0.07128200165519999,0.07831328498,0.3708523768,0.9194797007999999,0.12502683599999997,-8.086440867999997,,,,322.10855714285714,8.631687142857118,-8.631687142857118,1,47.383996599999996,8.149322699999999,420.462,0.6122571996595253,-101.104511299556,-13.175999999999988,2.9710002,-13.518001,0.26500002,4.0,18.0,0.536,0.757,0.6653988393106841,-101.32710702677912,-13.162244998302757,3.015663499628666,-13.521803853410411,0.30084393456926256,1.5949907212390402,-101.6994344035533,-9.441727968735579,3.2829281485117674,-13.489192489328564,0.43978308733848637,0.8142675195743283,0.14799114514058737,-0.09821484474212618,-0.5526414329984675,0.35710688644031474,0.003621268129465786,-1.1919181251039368,,,,,,,,,,,12.528291869607651,12.986715325980871,-0.6811447795960409,-1.2543977709821383,0.0
2503855053,2.6000000000000227,0.018577789664,0.12060298719999996,0.37966336840000003,0.90029646756,0.25591382440000005,-9.232899408000002,,,,322.2313033333333,8.75443333333331,-8.75443333333331,0,,,,,,,,,,,,,,1.0031921246600284,-102.74203028652441,-13.074811730458677,3.2995644634518655,-13.545976580402606,0.5286847340179186,1.949050286449626,-103.05388843518777,-9.389484847198336,3.590934546800384,-13.457870895692517,0.6715379203745551,0.8243611799549592,0.15095142658346627,-0.09949205663132214,-0.5364074429651873,0.36357371779066233,-0.002094773289360637,-1.1541115910995576,,,,,,,,,,,12.61175452303041,13.072650594522496,-0.7020425170163298,-1.2477906364088138,0.0
2503955053,2.699999999999932,-0.033677737247999995,0.11726836764,0.37411577479999986,1.024300774,0.23409578120000002,-10.410687808,,,,321.8459666666667,8.36909666666665,-8.36909666666665,1,47.3840025,8.149286199999999,420.29200000000003,1.2690421960956693,-103.85560319040916,-13.006000000000029,3.5230002,-13.565001,0.708,4.0,18.0,0.532,0.75000006,1.3503837568523585,-104.14135399301568,-12.984396587044321,3.6066604544819905,-13.56055323850912,0.7413582111816066,2.3363950481966524,-104.40324388402549,-9.319010285314098,3.966561125562014,-13.410408023811192,0.7867757288990825,0.8349430557264226,0.15291893786106947,-0.09791784941986151,-0.5195109357039337,0.3651632911765311,-0.00462420907080779,-1.1140368044232423,,,,,,,,,,,12.730407220241128,13.195743717439294,-0.7219561826962811,-1.2415248309942954,0.0
2504055053,2.7999999999999545,-0.09208778334800001,0.15315253088,0.354100024,1.3201742859999999,0.40798557795999996,-10.753284732000003,,,,321.8632028571428,8.386332857142836,-8.386332857142836,0,,,,,,,,,,,,,,1.732304879759153,-105.48303303614894,-12.882962588754772,3.9994684856679723,-13.539669768273036,0.8979842379522265,2.7630623019297706,-105.74983878444645,-9.240819458284456,4.37551987897252,-13.334477061181516,0.8431354764494914,0.845539868601523,0.15229060746520193,-0.09449889658479496,-0.5029274581855065,0.3603445798731564,-0.006621500428490468,-1.0743813427560267,,,,,,,,,,,12.800563114183474,13.268478711857515,-0.7397806873694286,-1.23636156203246,0.0
2504155053,2.8999999999999773,-0.08455317979999999,0.13706434635999998,0.3298577388,1.1329370284000002,0.39285769756,-11.221024720000003,,,,321.65522142857145,8.178351428571407,-8.178351428571407,1,47.3840094,8.1492504,420.088,2.0371466816408983,-106.55393441479706,-12.802000000000021,4.313,-13.523001,1.023,4.0,18.0,0.528,0.74200004,2.132379844018507,-106.8216039791912,-12.780911076827554,4.398549435165095,-13.502309981038334,1.0072827906366724,3.2284724783119882,-107.08761281755197,-9.164055628385471,4.803141453243754,-13.251512413394918,0.818920799622087,0.855789391892398,0.15036686585538633,-0.08840678456403694,-0.48702964196386217,0.35062250040246085,-0.004848624246120038,-1.035636663397171,,,,,,,,,,,12.771250924287385,13.238215632047478,-0.7574384101867412,-1.231286310736618,0.0
2504255053,3.0,-0.2149052632,0.14441130539999997,0.30041051600000007,1.2023537492000003,0.4294216376000001,-11.212395432000001,,,,321.68830499999996,8.211434999999975,-8.211434999999975,0,,,,,,,,,,,,,,2.604251622720362,-108.14788266511992,-12.67641735384436,4.822439214003144,-13.399787837734063,0.9294054278216508,3.7375424229104395,-108.41823997918686,-9.084764348185098,5.226258768388432,-13.14095254760929,0.7632414876990593,0.8650505789448981,0.1481614003526393,-0.08268991520197753,-0.47211322966519603,0.3409873727998668,-0.0031583324617062997,-0.9997154574935748,,,,,,,,,,,12.929067492630804,13.402134225773766,-0.763265975060104,-1.2297284834768114,0.0
2504355053,3.1000000000000227,-0.16123423108,0.18419208095999998,0.292520428,1.2903219386,0.4369642284,-11.677447340000004,,,,321.387085,7.910214999999975,-7.910214999999975,1,47.384018,8.1492147,419.87600000000003,2.994494302424583,-109.24472840116984,-12.590000000000032,5.1730003,-13.315001,0.86500007,4.0,18.0,0.526,0.73600006,3.09025486385024,-109.4752625008461,-12.574533206754902,5.237648020080769,-13.29345167308098,0.8618719536432999,4.2873841636026935,-109.73824495892256,-9.010014597643098,5.63570048020202,-13.026511592592591,0.7028963663804714,0.8742683322733402,0.14089531966067678,-0.07341736728666855,-0.45869641757769625,0.3191068834213994,0.000894025934010792,-0.9662253464875207,,,,,,,,,,,13.01583547386172,13.491606043001687,-0.7681404186330032,-1.2284540448063535,0.0
2504455053,3.199999999999932,0.063519502188,0.17464887340000004,0.2994338988,1.2384203616968001,0.31093087199999997,-12.602245232,,,,321.3732528571428,7.896382857142847,-7.896382857142847,0,,,,,,,,,,,,,,3.6438161184063227,-110.80790658244767,-12.48512460946529,5.611355864931738,-13.1688818891685,0.8437893109662659,4.879344432962963,-111.04899435767196,-8.941207478835977,6.032520682222223,-12.905770851851852,0.5612772706613757,0.8826753407872097,0.13697574408087182,-0.06385241249067967,-0.4450153688378262,0.30328666003204974,0.00919121791921674,-0.9325461057416241,,,,,,,,,,,13.080715838229375,13.559231161931589,-0.7749352602636259,-1.2267995632283712,0.0
2504555053,3.2999999999999545,-0.04417096629166667,0.16161732875,0.278056015,1.359575386375,0.5460462635416666,-12.507508645833338,,,,321.38709166666666,7.910221666666653,-7.910221666666653,1,47.3840279,8.149179499999999,419.69800000000004,4.096557261670106,-111.89783619746714,-12.412000000000035,5.9170003,-13.067,0.82900006,4.0,18.0,0.521,0.72900003,4.2115957130214,-112.13287395730357,-12.399671623962286,6.001576594676879,-13.04116489086484,0.7884795860387923,5.508428913675723,-112.34433875055792,-8.885771617460648,6.440979487963817,-12.752130706251673,0.38391988373999464,0.8894958976293564,0.1419395747361039,-0.0590465303546056,-0.43030014607311645,0.3082304195872219,0.017109057520911367,-0.8984798857148852,,,,,,,,,,,13.098134055421479,13.577273870280987,-0.7819780770555796,-1.2250960078654374,0.0
2504655053,3.3999999999999773,-0.11938451175999998,0.21603373119999997,0.2512057916,1.4904908086799997,0.3786376372,-13.331722079999999,,,,321.38400125,7.907131249999978,-7.907131249999978,0,,,,,,,,,,,,,,4.8432239530219166,-113.42336843836888,-12.33198164407018,6.465949815326305,-12.899315063076111,0.5659985342559577,6.177555460831009,-113.62442607390301,-8.846862404806894,6.848267843140078,-12.573007907591252,0.19436042040940585,0.8962229439916373,0.14233306960370706,-0.05282281737179767,-0.4168119997784504,0.3039033354897299,0.023974698899917726,-0.8669701232539216,,,,,,,,,,,12.979199053308221,13.452739704225353,-0.7761647695841339,-1.2267700907381083,0.0
2504755053,3.5,-0.04538172604000001,0.19018776860000003,0.2432599244,1.6470032855999996,0.511782109,-12.864211580000001,,,,321.45930666666663,7.9824366666666435,-7.9824366666666435,1,47.3840393,8.1491451,419.562,5.3655994563495435,-114.49064608904433,-12.27600000000001,6.8500004,-12.782001,0.38200003,4.0,18.0,0.518,0.72400004,5.491706652326654,-114.70834490231798,-12.273492185781432,6.9264454608999095,-12.74334607049295,0.3406643309753524,6.885969516185888,-114.88475916411853,-8.829677141579646,7.246923928056309,-12.388065800909633,-0.06736819010688669,0.9028599555637898,0.140580265452783,-0.042176497935959976,-0.40410324579143214,0.29228467863127705,0.037468438861329306,-0.8361660799927221,,,,,,,,,,,12.917094347880418,13.389151922330097,-0.7685692439184738,-1.228912408686424,0.0
2504855053,3.6000000000000227,-0.06940460528,0.15580260095999995,0.21105100959999995,1.3868630951999998,0.5027025676,-12.655209319999999,,,,321.45886666666667,7.981996666666646,-7.981996666666646,0,,,,,,,,,,,,,,6.22077640995578,-115.96693779862159,-12.258993635636449,7.368401065339466,-12.519868418258174,0.10168821358709129,7.633989142723826,-116.12681191304,-8.83921689399562,7.624730519449473,-12.176563522960281,-0.33005979372299626,0.9084479808051524,0.14154875650860313,-0.03438286627482997,-0.39179039806155386,0.28844233499604005,0.048465571579253505,-0.8073071315141467,,,,,,,,,,,12.777965982329084,13.244569667149479,-0.7401251924954619,-1.2360819861247656,0.0
2504955053,3.699999999999932,-0.2351378753846154,0.16505404903846158,0.17553390230769228,1.3362845215384611,0.4174013692307692,-11.163240165384618,,,,321.42193285714285,7.945062857142838,-7.945062857142838,1,47.384052399999995,8.149111699999999,419.533,6.823884785559323,-117.00808360023083,-12.247000000000014,7.734,-12.335001,-0.096,4.0,18.0,0.514,0.72,6.961942311487742,-117.21856849841052,-12.251336335160548,7.781352866679718,-12.295713803445576,-0.1270481623512138,8.418177575675676,-117.34498621621621,-8.873372567567568,7.971782279279279,-11.972765576576577,-0.5184629198198197,0.9134101836935473,0.14038246014804173,-0.027001543243737897,-0.38110455879192956,0.28119063272914774,0.057709823470424144,-0.7823785733378608,,,,,,,,,,,12.672523134873634,13.135962420135124,-0.7076558038218776,-1.2442222036519563,0.0
2505055053,3.7999999999999545,-0.27195688840000004,0.16962817552,0.1697914616,1.2164552410399998,0.42944362360000016,-10.466276748,,,,321.5570714285714,8.080201428571408,-8.080201428571408,0,,,,,,,,,,,,,,7.761025056920507,-118.43686390953334,-12.276435224785676,8.055433243363854,-12.068317863441962,-0.30675622712642814,9.236942117494072,-118.54393439317403,-8.921381875783977,8.264397546228407,-11.778150879545068,-0.6113752669994299,0.9186229673708818,0.1321154211657264,-0.01597531455147586,-0.3720381649624412,0.25808387653582965,0.06901671834548895,-0.760657025046255,,,,,,,,,,,12.721906648374164,13.186499353407571,-0.6588483820140676,-1.2559216778310418,0.0
2505155053,3.8999999999999773,-0.22912150064000003,0.1827343638,0.17753297799999998,1.1646161150399998,0.3952293055999999,-10.51391866,,,,321.6303042857143,8.153434285714273,-8.153434285714273,1,47.3840667,8.1490795,419.583,8.415753504390842,-119.43507425463683,-12.297000000000025,8.280001,-11.882001,-0.45400003,4.0,18.0,0.514,0.721,8.573589039555968,-119.64606913939544,-12.312723712014515,8.340896300865365,-11.8362840800966,-0.46590642555569534,10.0811389566643,-119.72284691551789,-8.974335945857867,8.503982215009048,-11.600969131956454,-0.6266241206257935,0.9236668927980702,0.12235116116283441,-0.003974229056544076,-0.36310529837541505,0.23174811280929142,0.08160860034798412,-0.7396111880821906,,,,,,,,,,,12.820323772071099,13.289310983109102,-0.6068923003534055,-1.2683070906683334,0.0
2505255053,4.0,-0.33111698208333334,0.1835099316666667,0.18901983291666669,1.3110929559750002,0.29277363866666667,-10.585065716666668,,,,321.9318433333333,8.454973333333308,-8.454973333333308,0,,,,,,,,,,,,,,9.447298063442627,-120.81404525209183,-12.3997633578185,8.67798625860334,-11.583215052123164,-0.5318150641147615,10.951235394160022,-120.88752984356516,-9.033333000076944,8.710495836890345,-11.430658280293923,-0.6821692343950834,0.9282633410814616,0.11483916488512795,0.007476556494462867,-0.3536633248995808,0.21041276807507525,0.09525836611466981,-0.7179679648381355,,,,,,,,,,,12.847740035171798,13.317123645032897,-0.5708133984448993,-1.2768195257644792,0.0
2505355053,4.100000000000023,-0.2783810736,0.20848742879999999,0.1815561156,1.15324611432,0.51806067892,-10.488097783999999,,,,321.9364314285714,8.459561428571403,-8.459561428571403,1,47.384082299999996,8.1490487,419.75600000000003,10.152337560267968,-121.75654357623218,-12.470000000000027,8.950001,-11.379001,-0.58500004,4.0,18.0,0.514,0.72,10.329920099417333,-121.97772188451671,-12.488512790430795,8.959848130480248,-11.36098047254457,-0.6033158819128261,11.83639857908186,-122.03219132902491,-9.09913644945278,8.87872590320408,-11.267686600039617,-0.708609259733373,0.933311467298812,0.10250171635942736,0.0209375398894304,-0.3434874905744746,0.17897344043567645,0.10971966234745356,-0.69543975568896,,,,,,,,,,,12.745534929458291,13.212192938471444,-0.5387468024872649,-1.2843532245937965,0.0
2505455053,4.199999999999932,-0.14244141013999997,0.2209572908,0.14565011079999998,1.35152978996,0.4566568244000001,-11.201342636000001,,,,321.8394228571429,8.362552857142841,-8.362552857142841,0,,,,,,,,,,,,,,11.24979857208951,-123.12342666713538,-12.584409140758519,9.010856317376113,-11.26763404697901,-0.6981920378974216,12.746223027040802,-123.16025457165414,-9.169363340428296,9.028487386355687,-11.102228956740714,-0.7776961795751016,0.937497721490469,0.0930717079694946,0.034770708811731874,-0.3335023676460998,0.15315742634744234,0.1276224885953313,-0.6737490981361224,,,,,,,,,,,12.768108042661122,13.235756328731808,-0.5017121618003091,-1.2927471144585723,0.0
2505555053,4.2999999999999545,-0.22454826480000004,0.18021662900000007,0.10675049944000001,1.2720262744,0.36702186055999986,-10.431387703999999,,,,321.98588,8.509009999999973,-8.509009999999973,1,47.3840985,8.1490189,419.944,11.955713312018139,-124.00264051731693,-12.658000000000015,9.05,-11.196,-0.771,4.0,18.0,0.51600003,0.72200006,12.161866081536694,-124.24946278878636,-12.678664514406403,9.067502843702211,-11.138297448843362,-0.7997948151564435,13.670268262107301,-124.27080564898219,-9.253792364986849,9.150396946214391,-10.926769674184257,-0.9040842776582114,0.940166112066975,0.09001710501093543,0.04709415328908967,-0.3252127103190993,0.14062082601427828,0.14764013284644872,-0.6556385077742776,,,,,,,,,,,12.83254705066321,13.301157940460756,-0.46335722002560015,-1.301369607571038,0.0
2505655053,4.399999999999977,-0.13168837540000003,0.13685669135999998,0.11800869212000002,1.2009014499999997,0.21213431416000003,-10.216948183999998,,,,322.01727166666666,8.540401666666659,-8.540401666666659,0,,,,,,,,,,,,,,13.048163456938907,-125.31060755004786,-12.767505934898184,9.142751526858751,-10.890221132606744,-0.9235902371531908,14.603728319646336,-125.36312834856886,-9.349408900944104,9.24507567435936,-10.767820703881313,-0.9506300387247115,0.9424065785914572,0.08271462519113935,0.058324191572483405,-0.31878002138704553,0.12061340869598991,0.16339604461153986,-0.6424750870300421,,,,,,,,,,,12.665405217454545,13.128955263727272,-0.43406611663390215,-1.307786243066266,0.0
2505755053,4.5,0.10099533447999999,0.07037200569999999,0.13281322684,1.56609850664,0.5331752288,-10.527348715999999,,,,321.98664285714284,8.50977285714283,-8.50977285714283,1,47.3841149,8.1489899,420.127,13.781352960740387,-126.18843955380144,-12.841000000000008,9.205001,-10.685,-1.026,4.0,18.0,0.521,0.72900003,13.943053608506073,-126.37026208627111,-12.861664702997063,9.221947699258243,-10.65534321145068,-1.0331764536201926,15.542147538253664,-126.44049495355914,-9.447642150472415,9.299655477580272,-10.63194604213708,-0.9760791889648891,0.9444303652447967,0.07884019309451744,0.06668577623334478,-0.3120681536190595,0.10920136137512944,0.17607585932696448,-0.6286221004189136,,,,,,,,,,,12.594601734397678,13.055722731313498,-0.4071836618954706,-1.313616688058692,0.0
2505855053,4.600000000000023,0.21761924260000004,0.05348768295999999,0.10658143172000001,1.68249943572,0.3029449176000001,-12.326599867999999,,,,321.98625714285714,8.50938714285713,-8.50938714285713,0,,,,,,,,,,,,,,14.879092090507147,-127.42278036395372,-12.981286717451795,9.320047260811027,-10.483668603350418,-1.0747188768919298,16.48570919826915,-127.49885933794894,-9.551839401557768,9.372753465887783,-10.471857386355113,-1.0742513209127362,0.9458561505695547,0.08534043510182948,0.06786514179496031,-0.30571953966862275,0.12225407688362418,0.1815549212375928,-0.6140985009166441,,,,,,,,,,,12.407098363458674,12.861046530435592,-0.37949914693787123,-1.3192994441919736,0.0
2505955053,4.699999999999932,0.104237859188,0.04799601474399999,0.06725800328,1.7546249172000001,0.47626972559999986,-11.432842255999997,,,,322.15801,8.68113999999998,-8.68113999999998,1,47.3841317,8.148962,420.366,15.651520406239253,-128.29132897188018,-13.079999999999984,9.401,-10.342001,-1.1090001,4.0,18.0,0.526,0.73600006,15.820423461746417,-128.47217916818968,-13.102318159107298,9.431698583745073,-10.318800612002443,-1.146932140254261,17.433748189317328,-128.53797742295575,-9.669723143900976,9.455029526991748,-10.282107639609903,-1.2935120292453113,0.946395594611399,0.0961635910715026,0.06701653281441357,-0.3009906467809703,0.14466070445786924,0.18580326944517556,-0.6023440841896398,,,,,,,,,,,12.247635024444978,12.695591754588444,-0.35154762067676987,-1.3249330336992962,0.0
2506055053,4.7999999999999545,0.29494252068,-0.0038879847400000015,0.039866361680000004,1.3138517203999995,0.32528316635999993,-9.693537915999999,,,,322.4034916666667,8.926621666666657,-8.926621666666657,0,,,,,,,,,,,,,,16.786743362811492,-129.50685046694542,-13.230003719535901,9.607329819771579,-10.186067686791862,-1.3639470739132848,18.392121493595063,-129.5526972508275,-9.803809766547333,9.546879092279077,-10.075030162758372,-1.4262618463275367,0.9468111119671465,0.10168256391755319,0.06757242301295369,-0.2977303960807259,0.15572068022198254,0.18963917549078188,-0.5944920907376784,,,,,,,,,,,12.263396872539236,12.712642688560283,-0.32234570837822224,-1.3307020099665325,0.0
2506155053,4.899999999999977,0.6996333140000001,0.027187667724000004,0.034185733172,1.5051915676000005,0.29231241250000006,-11.024261440000002,,,,322.27490166666666,8.798031666666654,-8.798031666666654,1,47.3841489,8.1489348,420.619,17.566215647806622,-130.34145772337376,-13.333000000000027,9.749001,-10.079,-1.539,4.0,18.0,0.531,0.74500006,17.754904756641572,-130.53056832640243,-13.36077156498098,9.763173978777989,-10.033895243674257,-1.530860068116466,19.356455468103373,-130.5459491248104,-9.940644565839557,9.635254294324719,-9.87763564543087,-1.4362520727826908,0.9458014683230822,0.11621194299853257,0.06281822914415061,-0.2966503613384745,0.18695133359349855,0.18889744666867161,-0.590102540816999,,,,,,,,,,,12.268215575000001,12.7174697996139,-0.29263297579923503,-1.3365262957946533,0.0
2506255053,5.0,0.7116929347999998,0.01530085466008,-0.0065987170659999985,1.61243959392,0.21340105520000002,-11.080507424,,,,322.5385028571428,9.061632857142838,-9.061632857142838,0,,,,,,,,,,,,,,18.730748306677523,-131.50859171815185,-13.504397780232086,9.83647237957437,-9.800626954856796,-1.4887627786898316,20.335727694961697,-131.51809477108625,-10.080510160469629,9.746362013400804,-9.625206683381004,-1.5090030068384102,0.9416331208725883,0.14954918031069908,0.053719406689300926,-0.29672740099254574,0.25722607907360534,0.1910828638531824,-0.5857519627316139,,,,,,,,,,,12.226194985942055,12.673972550831476,-0.2670881149080294,-1.3415492139675305,0.0
2506355053,5.100000000000023,0.6863998548000001,0.040271510668,-0.0353056228812,1.58063299832,0.10223824159999989,-11.261646412,,,,322.88238428571424,9.405514285714267,-9.405514285714267,1,47.3841666,8.1489086,420.909,19.53657063499071,-132.31621409435675,-13.62299999999999,9.897,-9.608001,-1.4540001,4.0,18.0,0.53800005,0.753,19.714958484924395,-132.4768230178194,-13.6506320441879,9.956248646471877,-9.547019850343789,-1.4699383323842479,21.328188017987408,-132.4615520395723,-10.228272788348157,9.909895688318178,-9.308711189467374,-1.5910941242030578,0.9356657892307211,0.1829594288534453,0.044151847961113024,-0.2984506157192994,0.3278577499616489,0.19303376824597826,-0.5855081122573729,,,,,,,,,,,12.24696820712589,12.695643377197149,-0.24331218320617404,-1.3462320154710494,0.0
2506455053,5.199999999999932,0.5599857600000001,0.062326836640000015,-0.047053308640000006,1.5386018132000003,0.09080241479999998,-10.154103164000002,,,,323.04130857142854,9.564438571428566,-9.564438571428566,0,,,,,,,,,,,,,,20.73882262963934,-133.39864430842758,-13.809227258490314,10.29630860441183,-9.19701612161618,-1.56141644972482,22.34380822710954,-133.3698002088607,-10.380059810321761,10.10790721336516,-8.947789639517985,-1.641486150446115,0.9283485919593049,0.2151047643194822,0.03638375016435417,-0.3009273140087255,0.39525207630812903,0.19831757566023117,-0.5870921065500913,,,,,,,,,,,12.282000386929633,12.73154870232325,-0.22666250230776774,-1.3493326877795213,0.0
2506555053,5.2999999999999545,0.3936896283999999,0.08073356899999999,-0.001845564,1.4102669179999998,-0.40041113276000007,-10.489493131999998,,,,323.047785,9.570914999999976,-9.570914999999976,1,47.384185099999996,8.148883999999999,421.228,21.5959812143118,-134.17037465649892,-13.942000000000007,10.581,-8.904,-1.6380001,4.0,18.0,0.544,0.76000005,21.77096104979098,-134.30525460397376,-13.972711933382186,10.62057893608036,-8.828630843835278,-1.6260700051428798,23.37732892360757,-134.2417122248883,-10.533479735790769,10.314211689631385,-8.570599323685553,-1.6129962569718965,0.9212629235691077,0.24163392668207948,0.031466027841789555,-0.30313218630342414,0.45041808140777917,0.2059251648023572,-0.5884246439265718,,,,,,,,,,,12.209397608300907,12.6570145769131,-0.21304660882012552,-1.3517598160651236,0.0
2506655053,5.399999999999977,0.06987563081252002,0.13299263488000002,0.09598109408000001,1.7437279985600003,-0.364673763928,-10.550550795999998,,,,323.2913166666667,9.81444666666665,-9.81444666666665,0,,,,,,,,,,,,,,22.84564373913615,-135.1336537409032,-14.161337000217825,10.863662931169179,-8.365732206292453,-1.5527983256371667,24.443150110424458,-135.07291668161213,-10.68335912966839,10.534818857108847,-8.170660404727657,-1.5726822320847924,0.9163820859754951,0.2605224524683505,0.02954334940245049,-0.30248633607514414,0.48959497377133254,0.21336993778455973,-0.5841604534722326,,,,,,,,,,,11.91912052237608,12.356214902568734,-0.19389066126797352,-1.3549174051876083,0.0
2506755053,5.5,-0.056020185792,0.14401869943999995,0.24340099599999998,1.5072311928,-0.5627997924,-10.457780111999998,,,,323.38556,9.908689999999988,-9.908689999999988,1,47.3842046,8.148861799999999,421.609,23.766711284866325,-135.84364150519994,-14.322999999999979,11.0720005,-7.9690003,-1.4900001,4.0,18.0,0.551,0.767,23.92582816666523,-135.95137662046048,-14.346846797049288,11.074658089058511,-7.906869359356596,-1.4991940386675646,25.532240856957426,-135.86300884965962,-10.829760380466135,10.757560758220837,-7.749552187262028,-1.547575195116534,0.9168488474731434,0.26566463471648766,0.03326669444717422,-0.2961444827638175,0.499521174091376,0.2201258904221908,-0.5684844630026346,,,,,,,,,,,11.590588497105701,12.01579177860598,-0.17190863358445424,-1.3584476153772918,0.0
2506855053,5.600000000000023,-0.06586965555999999,0.16146459108000003,0.40276421879999996,1.6806110247600006,-0.40300387468,-10.635493884,,,,323.6792242857142,10.20235428571425,-10.20235428571425,0,,,,,,,,,,,,,,25.03900069918871,-136.70508527626382,-14.513677614520319,11.093250428910977,-7.472204880250648,-1.5635143035868626,26.649387118526892,-136.60641861843686,-10.972716897010566,10.989327952607251,-7.328821984122379,-1.5162971541009684,0.9209520640007491,0.26558338209777116,0.03751636206873946,-0.2826621064712493,0.5002471262502824,0.2210376887290677,-0.5389081087794679,,,,,,,,,,,11.366472704446462,11.783395136206897,-0.139056402758112,-1.3628884101719663,0.0
2506955053,5.699999999999932,0.06285046824,0.16394218791999995,0.5580949343999999,1.53373463184,-0.5086219232000001,-10.601108971999999,,,,323.8022985714286,10.325428571428542,-10.325428571428542,1,47.384224499999995,8.148841899999999,421.94100000000003,25.98196915148935,-137.3435518785948,-14.65500000000003,11.109,-7.1040006,-1.618,4.0,18.0,0.559,0.772,26.15596184694813,-137.44692197015212,-14.681739609745371,11.139110869253665,-7.052360184555176,-1.615778091665748,27.789801534085118,-137.30334001369602,-11.112012289286106,11.197157836737345,-6.897888443190475,-1.4931775099301203,0.9270472269652239,0.2656616797222917,0.040490973626469855,-0.26144035957968476,0.5035869033590585,0.21564961767310567,-0.49407281610676024,,,,,,,,,,,11.263303669421488,11.676553242714224,-0.0993719027306094,-1.3679015364189597,0.0
2507055053,5.7999999999999545,0.1247811516648,0.17868666376,0.6293283011999999,1.7612955169599998,-0.06083694120000001,-10.761024247999998,,,,323.83519,10.358319999999972,-10.358319999999972,0,,,,,,,,,,,,,,27.293912765579805,-138.12298535509208,-14.856622603501693,11.336042649853178,-6.71462038439282,-1.601246317079404,28.950560009894517,-137.9505666154793,-11.24803418688039,11.398342093743087,-6.437819447983115,-1.4548435836572209,0.9328763487870823,0.2715793359519339,0.040020939911628486,-0.23315397236324947,0.5215657756972887,0.20268009939195858,-0.43556765165570416,,,,,,,,,,,11.333141452528837,11.749522801774622,-0.06000527649977747,-1.372215287044751,0.0
2507155053,5.899999999999977,0.028480323432000004,0.20327961040000006,0.6283828148000001,1.80839306908,0.08479955816000004,-11.423219944000003,,,,323.93472,10.45784999999996,-10.45784999999996,1,47.3842449,8.148824,422.29,28.25288676372909,-138.69271749084868,-15.004000000000019,11.502001,-6.4300003,-1.5890001,4.0,18.0,0.56600004,0.77900004,28.440836646858486,-138.78936109020108,-15.028927534470641,11.546838705773038,-6.365570985665386,-1.587168364240178,30.128344976943545,-138.55032393310128,-11.382214636318169,11.622924333378345,-5.917964823910696,-1.4229091413955908,0.9377426573019647,0.280465291534226,0.03855217035477412,-0.2011763183531473,0.5462431634946312,0.18621516038553437,-0.37035674467768764,,,,,,,,,,,11.36841730937447,11.785609880742498,-0.020838283955784034,-1.3760898101053642,0.0
2507255053,6.0,0.17826692444,0.17798524895999995,0.6330561792000001,1.8863948331999998,0.09659383512000001,-11.83329878,,,,324.1578657142857,10.680995714285684,-10.680995714285684,0,,,,,,,,,,,,,,29.635838447019946,-139.4038295499696,-15.187418979477142,11.831920761807107,-5.955923768380197,-1.5755220280256421,31.328222170542265,-139.09394717611775,-11.517742149220876,11.851713109087065,-5.33452749063224,-1.4299420431724457,0.9428391805100734,0.2848043949979697,0.03902141558475714,-0.16856199000655944,0.5604835716340039,0.17041832993500092,-0.3046662280555981,,,,,,,,,,,11.396310454349388,11.814772153127246,0.014286475578692517,-1.3791853827348426,0.0
2507355053,6.100000000000023,0.24071468440000007,0.15793088020000004,0.5881598088,1.8863872363999996,0.42731643471999986,-10.590230652,,,,324.3171642857143,10.840294285714265,-10.840294285714265,1,47.3842661,8.1488079,422.603,30.612859968813957,-139.90621281799176,-15.317000000000007,12.065001,-5.6210003,-1.5660001,4.0,18.0,0.573,0.786,30.83055168266031,-139.9946498522647,-15.342066697204347,12.089445385335095,-5.501622385678156,-1.5584445352398262,32.54953879570688,-139.5797841672835,-11.653982307179866,12.066642542561066,-4.726757799851962,-1.3988761719467062,0.9448011417851561,0.2956617401137998,0.037114709687988495,-0.1361590772075283,0.5882548759893832,0.15120763579554788,-0.24037660805710748,,,,,,,,,,,11.637943146483153,12.065535053802842,0.04687549053156963,-1.381792309774016,0.0
2507455053,6.199999999999932,0.25477919760000006,0.2164955996,0.5328156504,1.9062759048000004,0.22388491195999996,-11.569217148,,,,324.478595,11.001724999999974,-11.001724999999974,0,,,,,,,,,,,,,,32.023971527221214,-140.47947543349895,-15.47948623124491,12.22345330888695,-4.847174086123063,-1.5170237537027742,33.79270066238791,-140.0081191851363,-11.783644650841255,12.275973013226164,-4.100108320373092,-1.3153968783522778,0.9444800886796584,0.3089731618130063,0.034290133400262754,-0.10626506947230129,0.6203521750173273,0.1307930860961207,-0.18210500708138144,,,,,,,,,,,11.68657201406419,12.116048587991346,0.07075980977784316,-1.3832771140104434,0.0
2507555053,6.2999999999999545,0.17484902296000002,0.2376082588,0.4942996844000001,2.058929312,0.24828640759999998,-12.379332719999997,,,,324.5138285714285,11.036958571428547,-11.036958571428547,1,47.3842881,8.1487947,422.885,33.06188876603583,-140.90112824149836,-15.59899999999999,12.34,-4.2780004,-1.4810001,4.0,17.0,0.58000004,0.79300004,33.23360113565888,-140.95080902997913,-15.614289279903199,12.370782416871792,-4.184022279271142,-1.4653710515259293,35.05543578952835,-140.3737737283604,-11.905467009704163,12.47815005732092,-3.4019701586029467,-1.2649807288874355,0.9427215836137686,0.32241297090758453,0.03515042104436316,-0.0778871661314325,0.6517178267546244,0.11674483364542791,-0.12537420518189923,,,,,,,,,,,11.738099703263833,12.169787823260314,0.08818649115363683,-1.383929463793484,0.0
2507655053,6.399999999999977,0.13112047839999996,0.23105083760000003,0.48078295239999996,1.9560240120000003,0.22241212708000002,-12.162467364000001,,,,324.56490833333334,11.088038333333307,-11.088038333333307,0,,,,,,,,,,,,,,34.55142438679513,-141.3320890643672,-15.73162834285953,12.607025063623848,-3.4627780679982476,-1.3454244016865533,36.33425060216559,-140.668657957888,-12.025427993541227,12.66255504042732,-2.6426862917475678,-1.2374653497245522,0.9410515561587869,0.33227700478240435,0.037472908402168124,-0.050912100571544945,0.6751082911423774,0.10454184777180621,-0.07137390530732976,,,,,,,,,,,11.804867708233546,12.238548924436369,0.10587340005960028,-1.3844149403688546,0.0
2507755053,6.5,0.033203551616000006,0.2336468772,0.4486688740000001,1.8710701903200002,0.42649335616,-10.974309228,,,,324.52174999999994,11.044879999999969,-11.044879999999969,1,47.384310799999994,8.148785,423.11,35.588841206554605,-141.6322403330382,-15.824000000000012,12.793,-2.8950002,-1.251,4.0,17.0,0.587,0.80300003,35.86386317961916,-141.67600818640213,-15.845221514873362,12.824462849023742,-2.719421188275982,-1.2354797981879078,37.628704958748365,-140.88608838902337,-12.142987069665462,12.817034482608436,-1.8674078087047103,-1.1846855620699235,0.9394943873721417,0.3393100174763052,0.04020586056673653,-0.024401065189683758,0.6923048126791261,0.09223334827613683,-0.01864636961739838,,,,,,,,,,,11.901710579960513,12.339276263079961,0.12378689750530278,-1.384755115036995,0.0
2507855053,6.600000000000023,0.040246893924,0.2480339536,0.4447146999999999,1.6456612457600004,0.03301244760000003,-11.064392524,,,,324.84525285714284,11.368382857142835,-11.368382857142835,0,,,,,,,,,,,,,,37.15638114683672,-141.88170352132045,-15.944956052298634,12.97232848030367,-1.8942542941881062,-1.1625396637199492,38.936990267464,-141.02912582517737,-12.250224245832293,12.932117431211182,-1.12592275653662,-1.0612237307443229,0.9387506687272987,0.3418361603303304,0.043514771710424706,0.0008335470439153439,0.6997069362707049,0.08121818538755624,0.031423482289005954,,,,,,,,,,,11.875718401582045,12.3123562834805,0.14005249425977018,-1.3847559208364981,0.0
2507955053,6.699999999999932,0.23186347899999998,0.27723728279999993,0.4616004448,1.9517598176000002,0.30678894864000006,-11.158731580000001,,,,325.0052928571428,11.528422857142832,-11.528422857142832,1,47.3843342,8.1487795,423.31100000000004,38.19371729178653,-142.04678842626583,-16.025000000000034,13.091001,-1.2320001,-1.1040001,4.0,18.0,0.58900005,0.80600005,38.45689567021012,-142.0556980883341,-16.04617903723147,13.127744166917804,-1.098818422973451,-1.0786837585318976,40.25591291647494,-141.10112059117736,-12.340208368410524,13.019980160348103,-0.39728459743343,-0.8934345497749324,0.9372628582131798,0.3443348532358553,0.04768543125981296,0.026134770689425452,0.7070852537771644,0.07144331397097607,0.08213102213692439,,,,,,,,,,,11.951328720082273,12.3906604289454,0.15483411286168622,-1.3844511159949036,0.0
2508055053,6.7999999999999545,0.42766164800000006,0.2759216240000001,0.46379466960000004,1.7067300263200003,0.10887656136,-11.227386555999999,,,,325.1951016666667,11.718231666666648,-11.718231666666648,0,,,,,,,,,,,,,,39.78991688493736,-142.10082629614595,-16.15345268982449,13.313851480486175,-0.42424172730131915,-0.9504543026837373,41.583526749075354,-141.09667088406405,-12.410896171514825,13.077648218796856,0.37887106384265984,-0.7443129412523242,0.9316028701184396,0.3557393380911797,0.053084988862948455,0.05215418733592355,0.7337319450984119,0.06181540093921897,0.1356147659031993,,,,,,,,,,,11.787147806730587,12.220871042019176,0.1758277841648073,-1.3835647212197741,0.0
2508155053,6.899999999999977,0.2587502327999999,0.3253776387999999,0.4555440212,1.9046685570400004,0.052192557800000004,-10.933849464,,,,325.09099000000003,11.614119999999982,-11.614119999999982,1,47.3843582,8.1487783,423.526,40.86538507076715,-142.13723528292647,-16.24000000000001,13.464001,0.120000005,-0.84700006,4.0,18.0,0.58900005,0.80600005,41.13311725076625,-142.1185854334768,-16.254153346105777,13.480628707313075,0.27776528498020103,-0.8272051644031105,42.91885538886217,-141.01253459786477,-12.465589215793017,13.098278068942964,1.166370378002116,-0.565121296964509,0.921680687367236,0.37545656257021326,0.05887051664614999,0.07775731760930757,0.7784165958345118,0.05012812329301591,0.18889840443884953,,,,,,,,,,,11.447268297135242,11.868533798967354,0.20340404088915914,-1.3820620461904738,0.0
2508255053,7.0,0.24371920920000004,0.38052536119999997,0.48248659919999987,1.8471789614,0.053850237280000005,-12.141436599999999,,,,325.1242066666667,11.647336666666641,-11.647336666666641,0,,,,,,,,,,,,,,42.518822856061526,-142.02205911781158,-16.32740703952625,13.566688990492388,1.094313496668007,-0.7247524155966847,44.25704776124775,-140.85131197880423,-12.505096641591681,13.0899319334933,1.9815571099520095,-0.3585014079210158,0.9136821403284225,0.38717460800412873,0.0662548681373745,0.10427675412311156,0.8065774923373243,0.040324349712144915,0.2444832431072743,,,,,,,,,,,11.49968199325951,11.922845418271546,0.23763106545063895,-1.3792741245844928,0.0
2508355053,7.100000000000023,0.12679965608000002,0.34772821719999997,0.47304931479999995,1.8929851420799997,0.29385914948,-11.642682884,,,,325.08060500000005,11.60373499999998,-11.60373499999998,1,47.3843825,8.148780799999999,423.669,43.570448696976165,-141.9488043315901,-16.38299999999998,13.632001,1.7140001,-0.647,4.0,18.0,0.587,0.81000006,43.89312706591339,-141.88905685156647,-16.385247947470944,13.600056364994382,1.9102814081222734,-0.5790883249551707,45.595786762162646,-140.60514575693688,-12.527485712253075,13.031010165156223,2.863100678477433,-0.17490909473906135,0.9048259262911298,0.39741806441229827,0.07538114198705118,0.13287710696665833,0.8324426475697476,0.030796585463651514,0.3052393560465222,,,,,,,,,,,11.627631181744386,12.055185810679175,0.2801096678182451,-1.3748916033191565,0.0
2508455053,7.199999999999932,0.06537309447083334,0.35569771041666676,0.47901768208333334,1.731155117625,0.02932229666666671,-11.456201158333334,,,,325.14043714285714,11.663567142857127,-11.663567142857127,0,,,,,,,,,,,,,,45.231541636974924,-141.64123454444618,-16.394572048308643,13.467555493927065,2.7244226338980138,-0.2974023361342769,46.93003873648584,-140.26922480685874,-12.531845882177159,12.918553580182735,3.7565880007895593,0.03114585250973821,0.8975097927163806,0.4022664785360374,0.08246214642558503,0.16079847992449298,0.8461393909475078,0.018654400493170912,0.3629592808624683,,,,,,,,,,,11.731434418793805,12.16315789677252,0.32186667654794765,-1.369640367338987,0.0
2508555053,7.2999999999999545,0.08200233388000001,0.35197040360000004,0.4980389368000001,1.51291994532,-0.03882176924000003,-10.864961508000004,,,,325.0177585714286,11.54088857142855,-11.54088857142855,1,47.384406999999996,8.1487875,423.688,46.29777622086539,-141.44380938170184,-16.401999999999987,13.362,3.3730001,-0.07300001,4.0,18.0,0.59000003,0.818,46.5724191480539,-141.3551108581645,-16.398593461928925,13.346309382416244,3.5528240291045687,-0.011269405853807112,48.25504414566748,-139.8484131026723,-12.515074937782535,12.766104406558787,4.617237879320519,0.2736477168449214,0.8904993167296497,0.4040445385402007,0.08921893112833519,0.18918194502625282,0.8531842149700706,0.006019892781343704,0.42140196643893046,,,,,,,,,,,11.778308860888814,12.21193182751575,0.3625653681143808,-1.3631150407288564,0.0
2508655053,7.399999999999977,-0.07885552084000001,0.3760156292000001,0.5497737052,1.5411802056000001,-0.18783060760000006,-11.151519963999997,,,,325.1387366666667,11.66186666666664,-11.66186666666664,0,,,,,,,,,,,,,,47.92294495051514,-140.9189458132327,-16.381842192893412,13.269152529624366,4.437088039256853,0.2922839190192893,49.56273485554677,-139.3443677013713,-12.47230762856457,12.573170755053662,5.437019949338348,0.5319201076095502,0.8823877321025062,0.40584903116903487,0.09527733790188514,0.2181215015005803,0.8599914334503354,-0.00890321834012609,0.48058946965984756,,,,,,,,,,,11.624959066370954,12.052618832429769,0.4057809629811628,-1.3550017015298195,0.0
2508755053,7.5,-0.18087228628,0.3947708272000001,0.6107342868,1.3770057941599998,-0.038439203999999984,-10.789628008,,,,324.8947,11.41782999999998,-11.41782999999998,1,47.3844309,8.1487989,423.65500000000003,48.95831205171402,-140.58456424318618,-16.369000000000028,13.210001,5.1150002,0.52500004,4.0,18.0,0.59400004,0.827,49.25519795307194,-140.44766542547558,-16.35371089655175,13.137578931034483,5.292951546466995,0.5729365511657143,50.85366537414305,-138.76052704402758,-12.401108695624163,12.345917054700346,6.2273119596453945,0.8091427074113247,0.8759209342686212,0.40008898,0.09959266354632589,0.25047813441019856,0.8496543106148928,-0.02594304860603227,0.5453134742716184,,,,,,,,,,,11.571997895021195,11.997357034161748,0.4527967072302474,-1.3444906996720767,0.0
2508855053,7.600000000000023,-0.24335616056000003,0.40601862680000006,0.6870432823999999,1.2622235740159997,-0.13395132499999998,-12.361367136000002,,,,324.79391499999997,11.317044999999979,-11.317044999999979,0,,,,,,,,,,,,,,50.52742070486283,-139.86102325153578,-16.288193655172417,12.827234103448275,6.055513024299508,0.7783552654514285,52.119113561610405,-138.1001208612153,-12.30273029791448,12.057855465506377,7.012778716476118,1.0405361451702926,0.8692256167979864,0.3903079281133727,0.10197635765813089,0.2857933756048526,0.8295173282936917,-0.045815317020207226,0.6151359541532597,,,,,,,,,,,11.660666547380812,12.08995977928193,0.49959648765412795,-1.3327280272561082,0.0
2508955053,7.699999999999932,-0.16768568876,0.4800664876,0.7714442919999999,1.8761894426399999,0.20554134648000003,-15.14416128,,,,324.7511983333333,11.27432833333331,-11.27432833333331,1,47.3844541,8.148814699999999,423.522,51.54092423784952,-139.3936806300884,-16.23599999999999,12.580001,6.663,0.94200003,4.0,18.0,0.596,0.832,51.79469092382832,-139.23966112225457,-16.205913058407088,12.513357910942682,6.842084150938442,0.994061741582551,53.35350776831624,-137.35895566484376,-12.18391962614972,11.680293337626265,7.8383152858967575,1.1795791214182052,0.8614794904635389,0.37653385419310476,0.10260019860531991,0.32484582793204764,0.7995949523387035,-0.06789180376651677,0.6924841924082372,,,,,,,,,,,12.010299414116014,12.451768335255355,0.5460095197319578,-1.318723861304188,0.0
2509055053,7.7999999999999545,-0.07722965645999999,0.4815410112,0.7722963304,1.7232706240000002,0.39339731800000005,-15.850512440000003,,,,324.58743,11.110559999999973,-11.110559999999973,0,,,,,,,,,,,,,,53.04256015071073,-138.48228746060116,-16.057963896364882,12.185647992289475,7.722710384900096,1.250069371315788,54.5446113719339,-136.5307480427954,-12.060384849835941,11.183033154455604,8.798466285862911,1.1505492612980672,0.8486863598616934,0.3652748472748607,0.1058113406741661,0.36757148682333063,0.7761958623709904,-0.08904519583393246,0.781008750038697,,,,,,,,,,,12.55922499296922,13.021054763096974,0.5883945830367366,-1.3052914266136975,0.0
2509155053,7.899999999999977,-0.1031768677,0.4753720924,0.7382387184000001,1.5096892311999996,0.5851330260000001,-13.237034659999999,,,,324.69802999999996,11.221159999999973,-11.221159999999973,1,47.384476299999996,8.148834599999999,423.229,54.0122169334597,-137.89377025681338,-15.942999999999984,11.931001,8.407001,1.4490001,4.0,18.0,0.59900004,0.84200007,54.26650669245641,-137.68548059678378,-15.912356632347047,11.809318972810877,8.613704332192123,1.416128112647441,55.681257455025396,-135.60387606787185,-11.944209433338,10.589171573271207,9.759233310552734,1.0844814751549814,0.8326666266203269,0.35658444325380423,0.11045555018034943,0.4089935099004321,0.7590100008738206,-0.1079385502827704,0.8700552896074533,,,,,,,,,,,12.89068130636413,13.364907243988428,0.6221398515738208,-1.2930853273392302,0.0
